[
 {
  "location": "太古汇",
  "type ": "Shopping Mall",
  "city": "广州",
  "district": "天河区",
  "quantity": 3,
  "number": 1.38629436111989,
  "dis": 0.126,
  "lati": 23.1348552250169,
  "longti": 113.332192216995
 },
 {
  "location": "置地广场",
  "type ": "Shopping Mall",
  "city": "广州",
  "district": "海珠区",
  "quantity": 1,
  "number": 0.693147180559945,
  "dis": 0.159,
  "lati": 23.1039428436956,
  "longti": 113.271301991008
 },
 {
  "location": "壹 方 城",
  "type ": "Shopping Mall",
  "city": "深圳",
  "district": "宝安区",
  "quantity": 17,
  "number": 2.89037175789616,
  "dis": 0.274,
  "lati": 22.5525944808101,
  "longti": 113.887779655449
 },
 {
  "location": "欢 乐 谷",
  "type ": "Shopping Mall",
  "city": "深圳",
  "district": "南山区",
  "quantity": 10,
  "number": 2.39789527279837,
  "dis": 0.814,
  "lati": 22.5732705337176,
  "longti": 113.881155950483
 },
 {
  "location": "松 岗 天 虹",
  "type ": "Shopping Mall",
  "city": "深圳",
  "district": "宝安区",
  "quantity": "NA",
  "number": "NA",
  "dis": 1.7,
  "lati": 22.7621137521209,
  "longti": 113.84978878725
 },
 {
  "location": "海 雅 缤 纷 城",
  "type ": "Shopping Mall",
  "city": "深圳",
  "district": "宝安区",
  "quantity": 18,
  "number": 2.94443897916644,
  "dis": 0.574,
  "lati": 22.5670147866492,
  "longti": 113.901038947167
 },
 {
  "location": "星 河 WORLD·COCO Park",
  "type ": "Shopping Mall",
  "city": "深圳",
  "district": "福田区",
  "quantity": 7,
  "number": 2.07944154167984,
  "dis": 0.11,
  "lati": 22.5491357587411,
  "longti": 114.051140748658
 },
 {
  "location": "益 田 假 日 广 场",
  "type ": "Shopping Mall",
  "city": "深圳",
  "district": "南山区",
  "quantity": "NA",
  "number": "NA",
  "dis": 0.109,
  "lati": 22.549829458597,
  "longti": 113.974446334926
 },
 {
  "location": "民 盈 · 国 贸 城",
  "type ": "Shopping Mall",
  "city": "东莞",
  "district": "东城区",
  "quantity": 28,
  "number": 3.36729582998647,
  "dis": 0.435,
  "lati": 23.012540905016,
  "longti": 113.759445624778
 },
 {
  "location": "清晖园",
  "type ": "Tourism",
  "city": "佛山",
  "district": "顺德区",
  "quantity": 4,
  "number": 1.6094379124341,
  "dis": 0.473,
  "lati": 22.8358356257099,
  "longti": 113.255052995938
 },
 {
  "location": "广东金融学院",
  "type ": "University",
  "city": "广州",
  "district": "天河区",
  "quantity": 17,
  "number": 2.89037175789616,
  "dis": 1.3,
  "lati": 23.2003398722295,
  "longti": 113.379831618014
 },
 {
  "location": "中山大学（东校区）",
  "type ": "University",
  "city": "广州",
  "district": "番禺区",
  "quantity": 9,
  "number": 2.30258509299405,
  "dis": 1.2,
  "lati": 23.0669450448413,
  "longti": 113.391887724779
 },
 {
  "location": "广东药科大学",
  "type ": "University",
  "city": "广州",
  "district": "番禺区",
  "quantity": 5,
  "number": 1.79175946922805,
  "dis": 1.6,
  "lati": 23.0549546738383,
  "longti": 113.405349538272
 },
 {
  "location": "广东科学技术职业学院",
  "type ": "University",
  "city": "广州",
  "district": "天河区",
  "quantity": 23,
  "number": 3.17805383034795,
  "dis": 1.5,
  "lati": 23.1448057469638,
  "longti": 113.363260453616
 },
 {
  "location": "广东财经大学",
  "type ": "University",
  "city": "广州",
  "district": "海珠区",
  "quantity": 7,
  "number": 2.07944154167984,
  "dis": 1,
  "lati": 23.0896763667221,
  "longti": 113.356843809438
 },
 {
  "location": "广东外语外贸大学（北校区）",
  "type ": "University",
  "city": "广州",
  "district": "白云区",
  "quantity": 5,
  "number": 1.79175946922805,
  "dis": 1.2,
  "lati": 23.0670423406823,
  "longti": 113.395667464885
 },
 {
  "location": "华南师范大学（石牌校区）",
  "type ": "University",
  "city": "广州",
  "district": "天河区",
  "quantity": 3,
  "number": 1.38629436111989,
  "dis": 0.697,
  "lati": 23.1432089624007,
  "longti": 113.351098633731
 },
 {
  "location": "华南农业大学",
  "type ": "University",
  "city": "广州",
  "district": "天河区",
  "quantity": 6,
  "number": 1.94591014905531,
  "dis": 0.798,
  "lati": 23.1572541680566,
  "longti": 113.353624402029
 },
 {
  "location": "暨南大学",
  "type ": "University",
  "city": "广州",
  "district": "天河区",
  "quantity": "NA",
  "number": "NA",
  "dis": 1,
  "lati": 23.1512891888716,
  "longti": 113.331655711033
 },
 {
  "location": "华南理工大学",
  "type ": "University",
  "city": "广州",
  "district": "天河区",
  "quantity": "NA",
  "number": "NA",
  "dis": 0.767,
  "lati": 23.1531620739281,
  "longti": 113.344894858777
 },
 {
  "location": "广东工业大学",
  "type ": "University",
  "city": "广州",
  "district": "越秀区",
  "quantity": 6,
  "number": 1.94591014905531,
  "dis": 0.876,
  "lati": 23.1353616266609,
  "longti": 113.298800828231
 },
 {
  "location": "广东实验Middle School",
  "type ": "Middle School",
  "city": "广州",
  "district": "越秀区",
  "quantity": "NA",
  "number": "NA",
  "dis": 0.766,
  "lati": 23.1256538118635,
  "longti": 113.278352980043
 },
 {
  "location": "星海音乐学院",
  "type ": "University",
  "city": "广州",
  "district": "天河区",
  "quantity": "NA",
  "number": "NA",
  "dis": 0.488,
  "lati": 23.1524826931122,
  "longti": 113.307428578529
 },
 {
  "location": "东莞Middle School",
  "type ": "Middle School",
  "city": "东莞",
  "district": "莞城区",
  "quantity": 35,
  "number": 3.58351893845611,
  "dis": 2,
  "lati": 23.0444120099869,
  "longti": 113.759376489597
 },
 {
  "location": "佛山科学技术学院",
  "type ": "University",
  "city": "佛山",
  "district": "顺德区",
  "quantity": 6,
  "number": 1.94591014905531,
  "dis": 1.2,
  "lati": 22.8639090592958,
  "longti": 113.265355130241
 },
 {
  "location": "德胜学校",
  "type ": "Middle School",
  "city": "佛山",
  "district": "顺德区",
  "quantity": 3,
  "number": 1.38629436111989,
  "dis": 3,
  "lati": 22.7938415997246,
  "longti": 113.292817005175
 },
 {
  "location": "深圳Middle School",
  "type ": "Middle School",
  "city": "深圳",
  "district": "罗湖区",
  "quantity": 6,
  "number": 1.94591014905531,
  "dis": 0.386,
  "lati": 22.5940422642232,
  "longti": 114.114664511921
 },
 {
  "location": "深圳技术大学",
  "type ": "University",
  "city": "深圳",
  "district": "坪山区",
  "quantity": 5,
  "number": 1.79175946922805,
  "dis": 0.273,
  "lati": 22.5965052645806,
  "longti": 113.944526853172
 },
 {
  "location": "深圳大学",
  "type ": "University",
  "city": "深圳",
  "district": "南山区",
  "quantity": "NA",
  "number": "NA",
  "dis": 0.86
 }
]